regionID,sumDeliveries,zipCode,city,lat,lon
1,1511,40297,SANCHONUÑO,41.3232,-4.3053
2,2535,25220,BELL-LLOCH,41.6333,0.7833
3,679,45695,ALBERCHE DEL CAUDILLO,39.9189,-4.6801
4,3756,10335,PERALEDA DE LA MATA,39.8529,-5.4606
5,23891,1009,VITORIA-GASTEIZ,42.85,-2.6727
6,256,10530,SERRADILLA,39.8292,-6.1403
7,682,27310,SAN CLODIO,42.4225,-7.3047
8,2006,26230,CASALARREINA,42.5491,-2.9099
9,1677,13248,ALHAMBRA,38.8993,-3.0533
10,2820,17700,"JUNQUERA, LA",42.4173,2.8736
11,861,1300,LAGUARDIA,42.5546,-2.5853
12,978,50171,"PUEBLA DE ALFINDEN, LA",41.5321,-0.4035
13,324,50160,LECIÑENA,41.7987,-0.6117
14,134,22449,CERLER,42.5934,0.5383
15,3037,1160,ARAMAYONA,43.0498,-2.5659
16,1488,43740,MORA DE EBRO,41.0833,0.6333
17,13796,21004,HUELVA,37.2714,-6.9495
18,1128,36500,LALIN,42.8561,-8.2748
19,763,1200,SALVATIERRA,42.8516,-2.3912
20,714,1211,PEÑACERRADA,42.6743,-2.7516749999999988
21,2254,15108,LA CORUÑA,43.2258,-8.647884615384614
22,3257,40300,SEPULVEDA,41.297,-3.7422
23,1302,34310,BECERRIL DE CAMPOS,42.1808,-4.594914285714286
24,24138,36208,VIGO,42.2328,-8.7226
25,2036,25440,VINAIXA,41.4333,0.9833
26,18131,26002,LOGROÑO,42.4667,-2.45
27,7992,22004,HUESCA,42.1362,-0.4087
28,2903,40410,SAN RAFAEL,40.7131,-4.1905
29,72672,41002,SEVILLA,37.3824,-5.9761
30,8465,46723,ALMOINES,38.9432,-0.1816
31,3315,9219,AMEYUGO,42.6028,-3.0461750000000003
32,2168,1440,IZARRA,42.9541,-2.9026
33,974,46389,TURIS,39.3833,-0.7
34,5900,48840,GUEÑES,43.2125,-3.095
35,609,45650,ESPINOSO DEL REY,39.6533,-4.7837
36,119,50529,FUENDEJALON,41.7605,-1.4552666666666667
37,26416,2004,ALBACETE,38.9942,-1.8564
38,2312,21890,MANZANILLA,37.3899,-6.433
39,2010,2100,TARAZONA DE LA MANCHA,39.25,-1.9167
40,802,24500,VILLAFRANCA DEL BIERZO,42.606,-6.8107
41,994,2120,PEÑAS DE SAN PEDRO,38.7288,-2.005
42,841,2125,AYNA,38.55,-2.1022
43,234,49622,QUIRUELAS DE VIDRIALES,42.0329,-5.8772400000000005
44,1622,46360,BUÑOL,39.4167,-0.7833
45,796,33100,TRUBIA,43.3377,-5.994
46,1041,2150,VALDEGANGA,39.1351,-1.6769999999999998
47,43,37338,VILLORUELA,41.0086,-5.3938
48,26132,33199,GRANDA (SIERO),43.2538,-5.760880952380954
49,1390,2249,BORMATE,39.1833,-1.5388833333333334
50,1137,31520,CASCANTE,41.9977,-1.681
51,4981,42005,SORIA,41.763999999999996,-2.4688
52,624,2247,CENIZATE,39.3,-1.65
53,94334,46019,VALENCIA,39.4698,-0.3774
54,1283,40194,SAN CRISTOBAL DE SEGOVIA,40.9305,-4.04892
55,10645,48340,AMOREBIETA,43.1942,-2.72568
56,92,18196,SIERRA NEVADA,37.095,-3.3969
57,340,24140,VILLASECA DE LACIANA,42.9846,-6.25475
58,695,2350,VILLAPALACIOS,38.575,-2.6338
59,1422,15999,PORTOSIN (PUERTO DE SON),42.758,-8.9491
60,3389,2400,HELLIN,38.5106,-1.7009999999999998
61,744,37260,VILLAVIEJA DE YELTES,40.8757,-6.4679
62,446,2435,SOCOVOS,38.3323,-1.9848
63,6474,43519,PERELLO,40.8667,0.7167
64,6891,41500,ALCALA DE GUADAIRA,37.3379,-5.8395
65,34889,39610,"ASTILLERO, EL",43.4009,-3.8205
66,586,30009,MURCIA,37.986999999999995,-1.13
67,3334,39709,SAMANO,43.3599,-3.2215
68,252,49300,PUEBLA DE SANABRIA,42.053999999999995,-6.6335
69,3066,16611,CASAS DE HARO,39.3335,-2.2727
70,16,50259,ARANDA DE MONCAYO,41.5775,-1.81635
71,867,50740,FUENTES DE EBRO,41.5125,-0.6316
72,527,25179,MAYALS,41.3667,0.5
73,223,15148,AGUALADA (CORISTANCO),43.2,-8.76
74,570,2653,ALBATANA,38.5706,-1.5221
75,3441,2690,ALPERA,38.9667,-1.2167
76,129,49137,VILLARRÍN DE CAMPOS,41.7952,-5.638999999999999
77,1150,2693,CORRAL-RUBIO,38.8346,-1.4303
78,475,16700,SISANTE,39.4085,-2.2017
79,1194,45890,CABEZAMESADA,39.8163,-3.1024
80,1801,31830,LAKUNTZA,42.9225,-2.0234
81,900,15379,CURTIS (ESTACION),43.3218,-8.1063
82,661,43782,VILLALBA DE LOS ARCOS,41.1167,0.4167
83,2754,45749,VILLAMUELAS,39.8178,-3.7346
84,415,24690,BUSDONGO,42.9833,-5.7
85,3989,23210,GUARROMAN,38.1828,-3.687
86,1258,32340,VILLAMARTIN DE VALDEORRAS,42.4343,-7.048299999999999
87,206,33830,BELMONTE DE MIRANDA,43.2825,-6.2182
88,12145,3690,SAN VICENTE DEL RASPEIG,38.3964,-0.5255
89,903,45770,ROMERAL (EL),39.7074,-3.4338
90,185004,28024,MADRID,40.4165,-3.7026
91,25227,3114,ALICANTE,38.3199,-0.5584
92,661,44300,MONREAL DEL CAMPO,40.788000000000004,-1.3554
93,2710,45940,VALMOJADO,40.2044,-4.0915
94,626,15110,PUENTECESO,43.25,-8.900000000000004
95,1230,15530,CERDIDO,43.6167,-8.0
96,929,41340,TOCINA,37.609,-5.734
97,1113,3802,ALCOY,38.7054,-0.4743
98,2232,3183,TORREVIEJA,37.9787,-0.6822
99,242,47851,SAN PEDRO DE LATARCE,41.7356,-5.3259
100,8531,3190,PILAR DE LA HORADADA,37.8659,-0.7926
101,22812,43392,CASTELLVELL,41.1755,1.1016
102,314,37671,SAN ESTEBAN DE LA SIERRA,40.5068,-5.9062
103,9600,15404,EL FERROL,43.4832,-8.2369
104,479,43371,MARGALEF,41.285,0.7533
105,3335,28590,VILLAREJO DE SALVANES,40.1666,-3.2728
106,3153,46850,"OLLERIA, L'",38.9395,-0.5214
107,1368,12080,CASTELLON DE LA PLANA,40.2108,0.0272
108,788,23611,HIGUERA DE CALATRAVA,37.7985,-4.1574
109,4245,3360,CALLOSA DE SEGURA,38.125,-0.8624000000000004
110,135,29770,TORROX,36.7579,-3.9523
111,4123,3158,CATRAL,38.1776,-0.8033888888888888
112,2129,15959,PALMEIRA (RIBEIRA),42.5833,-8.95
113,2131,45542,CASAR DE ESCALONA (EL),40.0464,-4.5251
114,681,34218,CEVICO DE LA TORRE,41.8511,-4.4097
115,471,34480,ALAR DEL REY,42.6604,-4.3127
116,275,32740,PARADA DEL SIL,42.3561,-7.535899999999999
117,1637,17850,BESALU,42.2167,2.6896714285714287
118,4025,47260,CABEZON DE PISUERGA,41.7616,-4.6236
119,113,46640,MOGENTE,39.0618,-0.6295
120,15728,3530,"NUCIA, LA",38.6137,-0.11640227272727267
121,3060,10910,MALPARTIDA DE CACERES,39.4466,-6.5076
122,220,16841,ALBALATE DE LAS NOGUERAS,40.3661,-2.2772
123,610,14140,"VICTORIA, LA",37.6813,-4.852
124,2366,45100,SONSECA,39.6775,-3.9745
125,916,47133,VEGA DE VALDETRONCO,41.5864,-5.12385
126,1588,39292,SAN MIGUEL DE MERUELO,43.0289,-4.036566666666666
127,545,10940,GARROVILLAS,39.7108,-6.5503
128,261,33720,BOAL,43.431999999999995,-6.8151
129,373,33590,COLOMBRES,43.3754,-4.574807142857141
130,2969,45164,GALVEZ,39.7021,-4.2724
131,65,37240,LUMBRALES,40.935,-6.7195
132,3834,41110,CORIA DEL RIO,37.3401,-6.1372
133,432,33780,TREVIAS,43.5403,-6.408528571428572
134,231,31540,BUÑUEL,41.9801,-1.445
135,5480,3630,SAX,38.5373,-0.8178
136,310,21330,VALDELAMUSA,37.7799,-6.883725
137,203,47210,ATAQUINES,41.1825,-4.8032
138,4729,39795,ESCALANTE,43.4368,-3.5135
139,7120,3291,ELCHE,38.2622,-0.7011
140,642,27740,MONDOÑEDO,43.3287,-7.2771
141,4762,16670,"PROVENCIO, EL",39.3774,-2.5745
142,505,40355,FUENTESAUCO DE FUENTIDUEÑA,41.4244,-4.0621
143,1187,27880,BURELA,43.65,-7.4
144,7746,3749,"POBLETS, ELS",38.5833,0.0007071428571428572
145,2781,15614,CAMPOLONGO (PONTEDEUME),43.4,-8.303322222222219
146,6079,20700,ZUMARRAGA,43.091,-2.31555
147,552,16270,VILLALPARDO,39.4667,-1.6333
148,942,15270,CEE,42.9547,-9.188
149,1119,3790,ORBA,38.7705,-0.1012
150,933,10880,ZARZA LA MAYOR,39.8769,-6.8621
151,555,21280,ARROYOMOLINOS DE LEON,38.0167,-6.4167
152,414,10693,RIOLOBOS,39.9207,-6.303999999999999
153,14314,45221,ESQUIVIAS,40.1044,-3.7668
154,1283,13360,GRANATULA DE CALATRAVA,38.7969,-3.7434
155,3509,46880,BOCAIRENT,38.7667,-0.6167
156,5604,20810,ORIO,43.266999999999996,-2.1222000000000003
157,40235,48610,URDULIZ,43.3833,-2.95
158,14293,17004,GIRONA,41.9831,2.8249
159,17829,31005,PAMPLONA,42.8169,-1.6432
160,1463,13650,PUERTO LAPICE,39.3236,-3.4815
161,1639,12596,TORREBLANCA,40.2203,0.209
162,1081,14870,ZUHEROS,37.5433,-4.3153
163,1409,18260,ILLORA,37.2877,-3.879
164,3278,41310,BRENES,37.5494,-5.8714
165,962,28812,PEZUELA DE LAS TORRES,40.4167,-3.23495
166,15547,4120,CAÑADA DE SAN URBANO (LA,36.8565,-2.408100000000001
167,420,18656,LECRIN,36.9382,-3.549185714285714
168,394,24420,FABERO,42.768,-6.6265
169,700,4270,SORBAS,37.0901,-2.1274
170,805,40250,MOZONCILLO,41.1454,-4.1875
171,531,31171,ORORBIA,42.8164,-1.768375
172,39,41960,GINES,37.3868,-6.0774
173,131,44410,MOSQUERUELA,40.3613,-0.4489
174,222,44380,VILLARQUEMADO,40.5175,-1.265
175,1337,4459,OHANES,37.0386,-2.74
176,700,41420,FUENTES DE ANDALUCIA,37.4641,-5.3461
177,1784,23660,ALCAUDETE,37.5909,-4.0824
178,1318,40450,NAVA DE LA ASUNCION,41.1559,-4.4875
179,300,4569,BENTARIQUE,36.9839,-2.60835
180,588,47420,ISCAR,41.3612,-4.5335
181,147,49400,FUENTESAUCO,41.2304,-5.4972
182,243,50230,ALHAMA DE ARAGON,41.2966,-1.8936
183,3706,21410,ISLA-CRISTINA,37.2,-7.3167
184,671,14310,OBEJO,38.1326,-4.8002
185,3422,4620,VERA,37.2434,-1.859
186,1396,50177,BUJARALOZ,41.4981,-0.1529
187,877,4647,GUAZAMARA,37.3667,-1.7727818181818185
188,1643,14930,MONTURQUE,37.4719,-4.5816
189,963,4650,ZURGENA,37.3667,-2.0257400000000003
190,1220,33680,COLLANZO DE ALLER,43.1235,-5.5642
191,1563,41809,ALBAIDA DEL ALJARAFE,37.4235,-6.1667
192,1297,33760,CASTROPOL,43.5278,-7.0305
193,3022,4712,BALERMA,36.7315,-2.8865
194,2864,41610,PARADAS,37.2905,-5.497000000000001
195,9547,29640,FUENGIROLA,36.54,-4.6247
196,546,27640,BECERREA,42.8371,-7.1636
197,10334,45638,PEPINO,40.1599,-4.7946
198,4801,4738,ALMERIA,36.8315,-2.6427000000000005
199,823,36770,ROSAL,42.0167,-8.833300000000003
200,418,23430,RUS,38.0476,-3.4625
201,23757,20014,SAN SEBASTIAN-DONOSTIA,43.3128,-1.975
202,24727,43130,TARRAGONA,41.2667,1.60835
203,2462,31514,VALTIERRA,42.1965,-1.6346
204,507,4830,VÉLEZ BLANCO,37.7088,-2.1092875
205,6850,20001,SAN SEBASTIAN-DONOSTIA,43.3128,-1.975
206,1162,15150,BAYO GRANDE,43.148,-8.9311
207,817,32689,CUALEDRO,41.989,-7.5735
208,433,16622,PINAREJO,39.6164,-2.4259
209,777,4860,OLULA DEL RIO,37.35,-2.3
210,17885,19001,GUADALAJARA,40.6286,-3.1618
211,2741,14700,PALMA DEL RIO,37.7002,-5.281199999999999
212,1350,41460,"NAVAS DE LA CONCEPCION, LAS",37.9333,-5.4667
213,214,4890,SERON,37.3449,-2.5091
214,5379,12580,BENICARLO,40.4165,0.4271
215,815,45570,PUENTE DEL ARZOBISPO (EL,39.8017,-5.1718
216,739,50400,CARIÑENA,41.3373,-1.2244
217,848,25620,TREMP,42.167,0.8949
218,442,5100,NAVALUENGA,40.4112,-4.709
219,228,5461,MIJARES,40.2965,-4.8365
220,143,5530,MUÑOGALINDO,40.586,-4.902033333333333
221,1656,25680,VALLFOGONA DE BALAGUER,41.7521,0.8138
222,224,5220,MADRIGAL DE LAS ALTAS TO,41.0897,-5.00905
223,1986,5230,NAVAS DEL MARQUES (LAS),40.6024,-4.3345
224,2262,15980,PADRON,42.7108,-8.744699999999998
225,955,14600,MONTORO,38.219,-2.9807
226,175,5268,HERRADON DE PINARES,40.5427,-4.5804
227,7803,5005,AVILA,40.6572,-4.6995
228,159,50580,VERA DE MONCAYO,41.824,-1.6880000000000002
229,1376,19180,MARCHAMALO,40.6668,-3.1991
230,282,5350,SAN PEDRO DEL ARROYO,40.7765,-4.8746
231,162,34230,TORQUEMADA,42.0349,-4.3184
232,361,45620,MONTESCLAROS,40.1065,-4.9385
233,359,24230,VALDEVIMBRE,42.4196,-5.6198
234,839,18700,ALBUÑOL,36.792,-3.205
235,2070,25320,ANGLESOLA,41.6565,1.0829
236,964,15293,CARNOTA,42.833,-9.0901
237,7811,45350,NOBLEJAS,39.9806,-3.44
238,2829,41550,AGUADULCE,37.298,-5.0998
239,592,10470,VILLANUEVA DE LA VERA,40.13,-5.4625
240,263,5593,LAS NAVAS,40.4117,-5.398716666666666
241,21934,18013,GRANADA,37.1882,-3.6067
242,6852,29009,MALAGA,36.7202,-4.4203
243,1268,37740,SANTIBAÑEZ DE BEJAR,40.4879,-5.6111
244,247638,28050,MADRID,40.4165,-3.7026
245,638,5415,HORNILLO (EL),40.2499,-5.1036
246,20151,37900,SANTA MARTA DE TORMES,40.9507,-5.6272
247,600,19462,ILLANA,40.6656,-2.07
248,779,34800,AGUILAR DE CAMPOO,42.7945,-4.2589
249,4939,10650,AHIGAL,40.1895,-6.1882
250,1822,27611,PARADELA,42.7468,-7.581094444444448
251,9893,24007,LEON,42.6,-5.5703
252,7397,6005,BADAJOZ,38.8779,-6.9706
253,7807,33468,TRASONA,43.5459,-5.869427272727273
254,389,47511,SIETEIGLESIAS DE TRABANCOS,41.3522,-5.1849
255,1335,6130,VALVERDE DE LEGANES,38.6706,-6.9804
256,571,6140,TALAVERA LA REAL,38.8779,-6.7686
257,1368,45700,CONSUEGRA,39.4625,-3.608
258,1418,22880,CANFRANC,42.6513,-0.4517
259,4350,6200,ALMENDRALEJO,38.6832,-6.4075
260,1942,41740,LEBRIJA,36.9208,-6.0753
261,447,33879,TINEO,43.3244,-6.4076818181818185
262,1656,50240,MORES,41.4733,-1.5649
263,125,26526,CORNAGO,42.0644,-2.0949
264,272,6260,MONESTERIO,38.0833,-6.2667
265,1878,6300,ZAFRA,38.4167,-6.4167
266,5504,48270,MARKINA-XEMEIN,43.2667,-2.5
267,751,49800,TORO,41.5242,-5.3953
268,2172,6400,DON BENITO,38.9563,-5.8616
269,267,39577,VEGA DE LIEBANA,43.0946,-4.6827
270,343,24237,TORAL DE LOS GUZMANES,42.2427,-5.5656333333333325
271,16772,33210,GIJON,43.5357,-5.6615
272,710,17773,PONTOS,42.177,2.9198
273,387,50830,VILLANUEVA DE GALLEGO,41.7692,-0.8235
274,2272,23500,JODAR,37.8406,-3.3526
275,1898,32111,PADERNE DE ALLARIZ,42.4756,-7.9174
276,16697,46182,"CAÑADA, LA",39.5333,-0.4833
277,1776,49690,SAN CRISTOBAL DE ENTREVIÑAS,42.0458,-5.6347
278,376,6614,ALMORCHON,38.7,-5.2833
279,230,6770,CASAS DE DON PEDRO,39.1082,-5.3308
280,3689,28214,FRESNEDILLAS,40.1642,-3.7327
281,1431,6700,VILLANUEVA DE LA SERENA,38.9766,-5.7974
282,781,34886,VELILLA DEL RIO CARRION,42.8261,-4.8463
283,1724,24393,SANTA MARINA DEL REY,42.4674,-5.836785714285715
284,1485,15689,ORDENES,43.0333,-8.42449523809524
285,1065,15810,ARZUA,42.9281,-8.1641
286,3141,22423,ESTADILLA,42.0566,0.2434
287,1018,6870,"GARROVILLA, LA",38.9196,-6.4775
288,1243,46295,SUMACARCEL,39.0322,-0.6105499999999999
289,820,6930,BERLANGA,38.2833,-5.8167
290,1499,33459,CASTRILLON,43.55,-6.030788888888887
291,104,10380,CIUDAD REAL,39.6662,-5.8131
292,1052,39860,RASINES,43.3176,-3.5289928571428564
293,2492,24010,LEON,42.6,-5.5703
294,1343,14549,"MONTIELA, LA",37.5714,-4.7965
295,1165,46837,QUATRETONDA,38.95,-0.4
296,912,10520,CASATEJADA,39.8864,-5.6819
297,5793,43422,BARBERA DE LA CONCA,41.4,1.2333
298,642,27720,PUENTE NUEVO,43.3262,-7.1462
299,513,21660,MINAS DE RIOTINTO,37.6969,-6.5943
300,7163,34410,MONZÓN DE CAMPOS,42.11600000000001,-4.4928
301,266,32540,"GUDIÑA, LA",42.011,-7.0647
302,7651,13003,CIUDAD REAL,38.9863,-3.9291
303,387,37310,MACOTERA,40.830999999999996,-5.2853
304,665,32800,CELANOVA,42.153,-7.9551
305,88033,48006,BILBAO,43.2627,-2.9253
306,416,14206,VALSEQUILLO,38.4,-5.35
307,877,10616,CASAS DEL CASTAÑAR,40.1132,-5.899
308,784,39696,SELAYA,43.206,-3.7746
309,381,45640,REAL DE SAN VICENTE (EL),40.0918,-4.6769
310,1181,27865,OUROL,43.55,-7.6
311,315,49200,BERMILLO DE SAYAGO,41.3665,-6.1122
312,4327,45790,QUERO,39.5111,-3.2474
313,248,15337,BARQUERO (MAÑON),43.7716,-7.805716666666666
314,607,12400,SEGORBE,39.85,-0.4833
315,881,36860,PONTEAREAS,42.1778,-8.5
316,186,14260,FUENTE LA LANCHA,38.4167,-5.0333
317,526,10630,PINOFRANQUEADO,40.2907,-6.3328000000000015
318,985,10440,ALDEANUEVA DE LA VERA,40.1271,-5.7015
319,55777,8120,HOSPITALET DE LLOBREGAT,41.5143,2.193
320,2918,13500,PUERTOLLANO,38.6871,-4.1073
321,24007,28411,MORALZARZAL,40.6782,-3.9707
322,108799,28903,GETAFE,40.3057,-3.7329
323,1332,10800,CORIA,39.9879,-6.5377
324,3138,23009,JAEN,37.7692,-3.7903
325,4891,17174,SAN FELIU DE PALLAROL,42.1167,2.5213
326,3263,18151,"OGIJARES, LOS",37.1191,-3.6077
327,740,13100,PIEDRABUENA,39.0354,-4.1751
328,2205,25125,ALGUAIRE,41.736999999999995,0.5845
329,235,21449,LEPE,37.2071,-7.22325
330,13289,45002,TOLEDO,39.8581,-4.0226
331,695,15080,CORUÑA A,42.3749,-7.8049
332,219,12185,CUEVAS DE VINROMA,40.3098,0.1354
333,4904,40593,SEGOVIA,41.28100000000001,-3.6014
334,1134,19133,BUDIA,40.6273,-2.7545142857142855
335,4813,43878,MASDENVERGE,40.716,0.5301
336,24974,8211,CASTELLAR DEL VALLES,41.6167,2.075
337,583,13412,CHILLON,38.796,-4.8663
338,4684,45800,QUINTANAR DE LA ORDEN,39.5937,-3.0417
339,1364,15863,"BAÑA, LA",42.9054,-8.691599999999998
340,1700,45170,SAN MARTIN DE PUSA,39.784,-4.6325
341,692,27620,SAMOS,42.7329,-7.32
342,1212,13670,VILLARRUBIA DE LOS OJOS,39.2208,-3.608
343,1592,49190,MORALES DEL VINO,41.4474,-5.7307
344,800,15320,PUENTES DE GARCIA RODRIGUEZ,43.4262,-7.9567
345,8896,39530,PUENTE SAN MIGUEL,43.3615,-4.0862
346,8204,8240,MANRESA,41.725,1.8448
347,96,49610,SANTIBAÑEZ DE VIDRIALES,42.0736,-6.0155
348,1046,22660,ESCARRILLA,42.7354,-0.3132
349,890,14730,POSADAS,37.8021,-5.1073
350,18546,17452,MASSANET DE LA SELVA,41.7654,2.6532
351,3243,33640,UJO,43.2055,-5.7921000000000005
352,694,27163,CORGO,42.8784,-7.384918181818179
353,1090,16250,CASTILLEJO DE INIESTA,39.5333,-1.7667
354,13274,15704,SANTIAGO DE COMPOSTELA,42.8805,-8.5457
355,922,25750,TORA,41.8167,1.4
356,1071,25793,COLL DE NARGO,42.1747,1.2571
357,3245,17142,VERGES,42.0628,3.0458
358,1095,28649,ROZAS DE PUERTO REAL,40.3167,-4.4833
359,3433,31360,FUNES,42.3156,-1.8002
360,3450,24410,CAMPONARAYA,42.6167,-6.671883333333334
361,690,31150,MENDIGORRIA,42.6038,-1.8448666666666669
362,760,14914,PALENCIANA,37.2485,-4.5826
363,20446,12540,VILA-REAL,39.9333,-0.1
364,503,22533,BELVER DE CINCA,41.7212,0.2527
365,779,16320,TALAYUELAS,39.85,-1.2833
366,14570,40003,SEGOVIA,40.9481,-4.1184
367,394,24800,CISTIERNA,42.8034,-5.1266
368,183,19005,GUADALAJARA,40.6286,-3.1618
369,426,14350,CERRO MURIANO,37.8916,-4.7727
370,904,33584,SEVARES,43.3687,-5.26221875
371,236,10864,TORRE DE DON MIGUEL,40.2233,-6.5769
372,15296,8394,SANT VICENC DE MONTALT,41.5785,2.5088
373,183,50344,MORATA DE JILOCA,41.24800000000001,-1.5867
374,4710,44001,TERUEL,40.3456,-1.1065
375,771,25599,ARTIES,42.7006,0.8709
376,139,14460,DOS TORRES,38.45,-4.9
377,850,16640,BELMONTE,39.5575,-2.7046
378,1630,27260,CASTRO RIBERAS DE LEA,43.1558,-7.5043
379,5157,46418,RIOLA,39.1833,-0.3
380,635,25560,SORT,42.4132,1.1305
381,177,47310,CAMPASPERO,41.4921,-4.1961
382,1520,47230,MATAPOZUELOS,41.4142,-4.7912
383,4555,36400,"PORRIÑO, O",42.2603,-8.4818
384,340,16100,VALVERDE DE JUCAR,39.7187,-2.2214
385,13878,17474,TORROELLA DE FLUVIA,42.1752,3.0359
386,3438,18680,SALOBREÑA,36.7468,-3.59425
387,472,8518,GURB,41.9333,2.0667
388,4518,28720,BUSTARVIEJO,40.8572,-3.7077
389,8085,23004,JAEN,37.7692,-3.7903
390,688,41660,VILLANUEVA DE SAN JUAN,37.0495,-5.1754
391,1243,50290,EPILA,41.6005,-1.2801
392,2846,13740,TORRENUEVA,38.6396,-3.3626
393,27058,28690,BRUNETE,40.4053,-3.9985
394,5782,8552,TARADELL,41.8749,2.2866
395,5312,49021,ZAMORA,41.5063,-5.7446
396,380,23180,FUERTE DEL REY,37.8749,-3.8839
397,1732,8573,ORIS,42.0597,2.2207
398,145,42100,AGREDA,41.8559,-1.9224
399,1683,8610,AVIA,42.0667,1.85
400,965,44570,CALANDA,40.9415,-0.2324
401,1486,8612,MONTMAJOR,42.0175,1.735
402,2027,36691,SOTOMAYOR,42.3358,-8.596199999999998
403,8676,16003,CUENCA,40.0667,-2.1333
404,281,44460,SARRION,40.1333,-0.8167
405,837,14200,PEÑARROYA-PUEBLONUEVO,38.3,-5.2667
406,2517,41760,"CORONIL, EL",37.0795,-5.6341
407,1672,39593,ROIZ (VALDALIGA),43.3366,-4.3043107142857115
408,270,44540,ALBALATE DEL ARZOBISPO,41.1217,-0.5114
409,656,21360,"REPILADO, EL",37.9277,-6.7694
410,59646,50006,ZARAGOZA,41.6561,-0.8773
411,1826,28630,VILLA DEL PRADO,40.2785,-4.3053
412,9951,27297,LUGO,43.0099,-7.556
413,137,37250,ALDEADAVILA DE LA RIBERA,41.0354,-6.52035
414,130,8696,"POBLA DE LILLET, LA",42.2449,1.9954
415,413,33790,PUERTO DE VEGA,43.5648,-6.645219999999999
416,5167,8710,SANTA MARGARITA DE MONTBUY,41.55,1.6167
417,1954,14830,ESPEJO,37.6798,-4.5535
418,890,15882,PUENTE LEDESMA (BOQUEIJON),42.8,-8.3333
419,24226,14003,CORDOBA,37.8916,-4.7727
420,752,32644,CALVOS DE RANDIN,41.9479,-7.896
421,1171,40446,MARTIN MUÑOZ DE LAS POSADAS,40.9955,-4.5967
422,762,32200,CORTEGADA,42.2526,-8.1466
423,206,27324,SEOANE (FOLGOSO DE CAUREL),42.6534,-7.1559
424,5908,45519,NOVES,40.0138,-4.294
425,178,49140,TABARA,41.8246,-5.9642
426,300,14440,VILLANUEVA DE CORDOBA,38.3228,-4.6287
427,2173,13200,MANZANARES,38.9991,-3.3699
428,1544,21510,SAN BARTOLOME DE LA TORRE,37.4452,-7.106
429,11913,8783,MASQUEFA,41.5035,1.8114
430,3257,36960,SANXENXO,42.4098,-8.7759
431,324,37797,CALZADA DE VALDUNCIEL,41.0866,-5.7022
432,78,28190,Montejo de la Sierra,41.1433,-3.4174250000000006
433,556,10891,ELJAS,40.2165,-6.8462
434,52022,28890,LOECHES,40.3833,-3.4
435,17076,8798,SANT CUGAT SESGARRIGUES,41.3667,1.75
436,821,13330,VILLANUEVA DE LA FUENTE,38.6946,-2.6964
437,233,28742,LOZOYA,40.9202,-3.7886
438,189246,8028,BARCELONA,41.3888,2.1590000000000003
439,1255,13170,MIGUELTURRA,38.9644,-3.8905
440,2906,36600,VILLAGARCIA DE AROSA,42.5963,-8.7643
441,454,31798,PAMPLONA,43.0,-1.6050000000000002
442,7939,36005,PONTEVEDRA,42.431000000000004,-8.6444
443,646,28730,BUITRAGO DEL LOZOYA,40.9909,-3.6337
444,13492,43700,"VENDRELL, EL",41.2167,1.5333
445,734,46171,CASINOS,39.7,-0.7
446,265,10850,HOYOS,40.1715,-6.7209
447,5142,46450,BENIFAYO,39.2844,-0.426
448,223,10370,DELEITOSA,39.6436,-5.6458
449,4727,28722,VELLON (EL),40.7666,-3.5329
450,3467,37720,PUERTO DE BÉJAR,40.3167,-5.87715
451,890,14650,BUJALANCE,37.8956,-4.3807
452,1566,21639,CANDON,37.3906,-6.7389
453,1604,14800,PRIEGO DE CORDOBA,37.4381,-4.1952
454,1983,12192,VILAFAMES,40.1167,-0.05
455,716,33592,NUEVA LLANES,43.4167,-4.921383333333334
456,2823,50637,REMOLINOS,41.8395,-1.1777
457,549,16444,CERVERA DEL LLANO,39.7831,-2.4202
458,816,40320,CANTALEJO,41.2576,-3.9279
459,1260,23460,PEAL DE BECERRO,37.9134,-3.1215
460,4061,33520,NAVA,43.3581,-5.5106
461,420,27500,CHANTADA,42.6811,-7.7835
462,642,16230,VILLANUEVA DE LA JARA,39.4333,-1.9333
463,855,26144,GALILEA,42.3121,-2.2396666666666665
464,14219,25003,LLEIDA,41.6167,0.6222
465,1874,17532,PUIGCERDA,42.3505,1.9718
466,313,45578,CAMPILLO DE LA JARA (EL),39.5892,-5.0553
467,1284,43596,HORTA DE SAN JUAN,40.95,0.3167
468,2769,39697,SOTO IRUZ,43.2457,-3.9474
469,377,9100,MELGAR DE FERNAMENTAL,42.4044,-4.2448
470,1237,27380,PARGA (SAN ESTEBO),42.8114,-7.438300000000001
471,13067,9006,BURGOS,42.3502,-3.6753
472,348,50450,MUEL,41.4663,-1.085
473,2216,21730,ALMONTE,37.2647,-6.5167
474,2087,9292,MONASTERIO DE RODILLA,42.4149,-3.4205692307692317
475,6682,45007,TOLEDO,39.8581,-4.0226
476,724,26300,NAJERA,42.4182,-2.7287
477,576,9197,VILLALBILLA DE BURGOS,42.41,-3.722875
478,3527,50191,JUSLIBOL,41.625,-1.0346
479,2021,16400,TARANCON,40.0085,-3.0073
480,211,9342,SANTA MARIA DEL CAMPO,42.133,-4.025066666666667
481,391,26121,VIGUERA,42.3093,-2.542325
482,5177,46512,FAURA,39.7167,-0.25
483,1585,25332,FULIOLA,41.7194,1.0048
484,57,9540,TRESPADERNE,42.8022,-3.4057
485,11363,17252,SAN ANTONI DE CALONGE,41.8457,3.0997
486,683,9560,ESPINOSA DE LOS MONTEROS,43.0775,-3.5536
487,1919,50170,MEQUINENZA,41.3721,0.3017
488,194,42142,ESPEJÓN,41.7909,-3.2261
489,776,42148,CASAREJOS,41.7965,-2.9749125000000003
490,171,9670,QUINTANAR DE LA SIERRA,41.9829,-3.0377
491,352,25720,BELLVER DE CERDAÑA,42.3667,1.7833
492,960,19283,ANGUITA,41.0266,-2.39482
493,7437,10004,CACERES,39.4765,-6.3722
494,2766,43320,PRATDIP,41.0857,0.8565999999999999
495,500,27200,PALAS DE REI,42.8895,-7.8954
496,280,10110,MADRIGALEJO,39.1386,-5.6274
497,1173,10189,ZARZA DE MONTANCHEZ,39.3036,-6.0183
498,36166,15670,"BURGO, EL (CULLEREDO)",43.3167,-8.3667
499,814,32514,FEAS (BOBORAS),42.4167,-7.930907894736844
500,10697,15959,OURENSE,42.5833,-8.95
501,634,10140,GUADALUPE,39.4508,-5.3259
502,580,24398,ALMÁZCARA,42.6176,-6.49105
503,301,49519,RABANALES,41.7585,-6.284439999999999
504,359,25552,VILALLER,42.4762,0.7251
505,27380,47014,VALLADOLID,41.6552,-4.7237
506,803,26511,"VILLAR DE ARNEDO, EL",42.3209,-2.0953
507,711,10184,TORREMOCHA,39.3457,-6.1733
508,657,33555,CARREÑA DE CABRALES,43.3174,-4.861716666666666
509,585,19115,ALMOGUERA,40.2971,-2.9824
510,1357,21130,MAZAGON,37.1142,-6.7644
511,2141,23770,MARMOLEJO,38.0455,-4.1703
512,633,16441,VILLAS VIEJAS,39.8593,-2.7154
513,3576,45214,CEDILLO DEL CONDADO,40.1126,-3.9213
514,1792,17520,PUIGCERDA,42.4168,1.9203
515,176,10210,MADROÑERA,39.4253,-5.7557
